[
  {
    "code": "510101",
    "name": "市辖区",
    "longitude": 104.06147620601656,
    "latitude": 30.673811089635645,
    "parent": "510100"
  },
  {
    "code": "510104",
    "name": "锦江区",
    "longitude": 104.11771422915326,
    "latitude": 30.600488370043763,
    "parent": "510100"
  },
  {
    "code": "510105",
    "name": "青羊区",
    "longitude": 103.98185327540055,
    "latitude": 30.67941706568555,
    "parent": "510100"
  },
  {
    "code": "510106",
    "name": "金牛区",
    "longitude": 104.05493330029368,
    "latitude": 30.729397214759103,
    "parent": "510100"
  },
  {
    "code": "510107",
    "name": "武侯区",
    "longitude": 104.03482180343299,
    "latitude": 30.606579455547386,
    "parent": "510100"
  },
  {
    "code": "510108",
    "name": "成华区",
    "longitude": 104.14361111720478,
    "latitude": 30.688842452164145,
    "parent": "510100"
  },
  {
    "code": "510112",
    "name": "龙泉驿区",
    "longitude": 104.29474942533973,
    "latitude": 30.597144246282987,
    "parent": "510100"
  },
  {
    "code": "510113",
    "name": "青白江区",
    "longitude": 104.3398473499786,
    "latitude": 30.790669906218525,
    "parent": "510100"
  },
  {
    "code": "510114",
    "name": "新都区",
    "longitude": 104.11000999204975,
    "latitude": 30.833775581903026,
    "parent": "510100"
  },
  {
    "code": "510115",
    "name": "温江区",
    "longitude": 103.81004405781759,
    "latitude": 30.723983709274425,
    "parent": "510100"
  },
  {
    "code": "510116",
    "name": "双流区",
    "longitude": 104.02641756920133,
    "latitude": 30.44394529193185,
    "parent": "510100"
  },
  {
    "code": "510117",
    "name": "郫都区",
    "longitude": 103.88206078832671,
    "latitude": 30.840016461506195,
    "parent": "510100"
  },
  {
    "code": "510121",
    "name": "金堂县",
    "longitude": 104.60886333671343,
    "latitude": 30.72263037674179,
    "parent": "510100"
  },
  {
    "code": "510129",
    "name": "大邑县",
    "longitude": 103.38185160597703,
    "latitude": 30.609247378270453,
    "parent": "510100"
  },
  {
    "code": "510131",
    "name": "蒲江县",
    "longitude": 103.49116313602042,
    "latitude": 30.234218627180322,
    "parent": "510100"
  },
  {
    "code": "510132",
    "name": "新津县",
    "longitude": 103.8256991656572,
    "latitude": 30.421796732636526,
    "parent": "510100"
  },
  {
    "code": "510181",
    "name": "都江堰市",
    "longitude": 103.63077566993,
    "latitude": 31.033389427320152,
    "parent": "510100"
  },
  {
    "code": "510182",
    "name": "彭州市",
    "longitude": 103.8833371338778,
    "latitude": 31.1426841126251,
    "parent": "510100"
  },
  {
    "code": "510183",
    "name": "邛崃市",
    "longitude": 103.36991565944855,
    "latitude": 30.382999445274383,
    "parent": "510100"
  },
  {
    "code": "510184",
    "name": "崇州市",
    "longitude": 103.5229399932553,
    "latitude": 30.71375458362063,
    "parent": "510100"
  },
  {
    "code": "510185",
    "name": "简阳市",
    "longitude": 104.5441175937499,
    "latitude": 30.366410223615567,
    "parent": "510100"
  },
  {
    "code": "510100",
    "name": "成都市",
    "longitude": 104.06147620601656,
    "latitude": 30.673811089635645,
    "parent": "510000"
  }
]
